City,Cloudiness,Country,Date,Humidity,Lat,Lon,MaxTemp,WindSpeed
Punta Arenas,20.0,CL,1553749946.0,100.0,-53.16,-70.91,1.0,2.1
porto santo,,,,,,,,
illoqqortoormiut,,,,,,,,
New Norfolk,0.0,AU,1553750239.0,28.0,-42.78,147.06,24.44,5.7
Waipawa,64.0,NZ,1553750537.0,74.0,-39.94,176.59,15.56,0.89
Cape Town,75.0,ZA,1553750590.0,93.0,-33.93,18.42,17.22,1.5
Cabo San Lucas,40.0,MX,1553750442.0,98.0,22.89,-109.91,22.0,2.6
Umea,0.0,SE,1553748600.0,74.0,63.83,20.26,2.0,2.6
umzimvubu,,,,,,,,
Anloga,20.0,GH,1553745600.0,88.0,5.79,0.9,28.0,3.6
vaitupu,,,,,,,,
Arraial do Cabo,88.0,BR,1553750731.0,93.0,-22.97,-42.02,25.32,3.51
cheuskiny,,,,,,,,
Narsaq,20.0,GL,1553748600.0,44.0,60.91,-46.05,-8.0,2.1
Hasaki,75.0,JP,1553750675.0,54.0,35.73,140.83,14.0,5.1
Isangel,40.0,VU,1553749200.0,66.0,-19.55,169.27,30.0,6.2
Tasiilaq,32.0,GL,1553748600.0,57.0,65.61,-37.64,-7.0,6.7
Muromtsevo,0.0,RU,1553750733.0,98.0,56.37,75.24,1.77,2.06
Carnarvon,0.0,ZA,1553750733.0,43.0,-30.97,22.13,12.57,1.31
Yellowknife,90.0,CA,1553750314.0,85.0,62.45,-114.38,-5.0,3.6
Srednekolymsk,0.0,RU,1553750734.0,49.0,67.46,153.71,-12.74,1.56
San Cristobal,75.0,EC,1553750180.0,93.0,-0.39,-78.55,15.0,2.1
Albany,40.0,US,1553750464.0,37.0,42.65,-73.75,3.0,7.7
Kanniyakumari,0.0,IN,1553750500.0,100.0,8.08,77.57,29.07,2.71
Hermanus,36.0,ZA,1553750194.0,95.0,-34.42,19.24,16.67,1.61
Jamestown,20.0,AU,1553750666.0,66.0,-33.21,138.6,21.82,2.51
Kapaa,20.0,US,1553750594.0,78.0,22.08,-159.32,24.0,2.96
Thompson,40.0,CA,1553745600.0,72.0,55.74,-97.86,-10.0,4.1
Datong,88.0,CN,1553750736.0,62.0,40.09,113.3,3.17,2.71
belushya guba,,,,,,,,
Burnie,0.0,AU,1553750644.0,71.0,-41.05,145.91,21.67,4.92
Pevek,88.0,RU,1553750737.0,82.0,69.7,170.27,-13.59,8.21
Berezovka,68.0,RU,1553750737.0,87.0,57.6,57.31,3.42,2.76
Lebu,92.0,ET,1553750737.0,73.0,8.96,38.73,16.07,1.51
Cherskiy,32.0,RU,1553750738.0,58.0,68.75,161.3,-16.59,2.91
Busselton,8.0,AU,1553750721.0,28.0,-33.64,115.35,22.78,8.36
Puerto Ayora,0.0,EC,1553747470.0,91.0,-0.74,-90.35,24.44,3.36
Atuona,0.0,PF,1553750739.0,100.0,-9.8,-139.03,28.17,6.26
Pyu,8.0,MM,1553750739.0,44.0,18.48,96.43,32.77,1.41
Torbay,5.0,CA,1553750562.0,72.0,47.66,-52.73,-9.44,2.6
Bluff,100.0,AU,1553750739.0,98.0,-23.58,149.07,21.97,5.41
Samarai,8.0,PG,1553750740.0,99.0,-10.62,150.67,28.97,5.21
Lingyuan,80.0,CN,1553750709.0,62.0,41.24,119.4,3.92,2.36
Chapais,90.0,CA,1553745600.0,47.0,49.78,-74.86,2.0,8.2
Pangnirtung,20.0,CA,1553750743.0,58.0,66.15,-65.72,-21.59,1.76
taolanaro,,,,,,,,
Vuktyl,80.0,RU,1553750744.0,84.0,63.86,57.31,0.32,2.81
Pisco,0.0,PE,1553749200.0,78.0,-13.71,-76.2,23.0,2.6
Ushuaia,0.0,AR,1553749200.0,56.0,-54.81,-68.31,7.0,3.6
Cockburn Town,92.0,TC,1553750744.0,100.0,21.46,-71.14,24.37,3.31
Lompoc,40.0,US,1553750667.0,93.0,34.64,-120.46,15.0,2.21
Kahului,20.0,US,1553750622.0,60.0,20.89,-156.47,24.0,2.1
Kawalu,24.0,ID,1553750727.0,95.0,-7.38,108.21,23.87,1.26
Puerto Suarez,0.0,BO,1553750745.0,63.0,-18.96,-57.8,24.72,3.26
San Quintin,0.0,PH,1553750746.0,43.0,17.54,120.52,30.97,3.21
Mataura,0.0,NZ,1553750406.0,68.0,-46.19,168.86,16.11,1.66
Saint-Philippe,90.0,CA,1553750669.0,75.0,45.36,-73.48,1.67,3.1
Hannoversch Munden,75.0,DE,1553750663.0,87.0,51.42,9.65,7.78,0.5
Wuwei,0.0,CN,1553750747.0,51.0,37.93,102.64,7.82,2.06
sentyabrskiy,,,,,,,,
Vaini,0.0,IN,1553745600.0,65.0,15.34,74.49,27.0,1.5
Airai,92.0,TL,1553750747.0,80.0,-8.93,125.41,25.07,0.96
Nanakuli,1.0,US,1553750590.0,73.0,21.39,-158.15,25.0,2.6
Tortoli,20.0,IT,1553750394.0,66.0,39.93,9.66,12.0,14.4
Cayenne,75.0,GF,1553749200.0,88.0,4.94,-52.33,25.0,0.5
Hilo,40.0,US,1553750612.0,78.0,19.71,-155.08,22.78,2.6
Geraldton,90.0,CA,1553749200.0,93.0,49.72,-86.95,3.0,5.1
Ilulissat,68.0,GL,1553748600.0,71.0,69.22,-51.1,-14.0,7.7
Qaanaaq,44.0,GL,1553750749.0,82.0,77.48,-69.36,-23.24,3.76
Sabang,88.0,PH,1553750749.0,83.0,13.72,123.58,27.62,3.66
attawapiskat,,,,,,,,
Kieta,36.0,PG,1553750750.0,92.0,-6.22,155.63,27.97,1.81
ruatoria,,,,,,,,
Rikitea,68.0,PF,1553750648.0,100.0,-23.12,-134.97,24.57,2.81
Belmonte,0.0,PT,1553750108.0,48.0,40.36,-7.35,7.22,2.24
Chara,90.0,GR,1553750604.0,76.0,39.42,22.43,13.0,3.6
Avarua,48.0,CK,1553749200.0,83.0,-21.21,-159.78,27.0,2.1
Puntarenas,0.0,CR,1553749200.0,56.0,9.98,-84.84,21.0,9.3
Jefferson City,90.0,US,1553750539.0,38.0,38.58,-92.17,16.11,4.6
Dikson,76.0,RU,1553750752.0,100.0,73.51,80.55,-4.24,16.06
Iquitos,75.0,PE,1553749200.0,94.0,-3.75,-73.25,25.0,1.5
kazalinsk,,,,,,,,
Kununurra,0.0,AU,1553747400.0,25.0,-15.77,128.74,37.0,4.6
Abyek,0.0,IR,1553749200.0,66.0,36.04,50.53,9.0,2.1
Castro,90.0,CL,1553749200.0,100.0,-42.48,-73.76,7.0,1.5
Los Llanos de Aridane,0.0,ES,1553750704.0,72.0,28.66,-17.92,16.0,3.6
Nikolskoye,75.0,RU,1553750736.0,64.0,59.7,30.79,1.0,4.0
Broome,0.0,GB,1553750707.0,81.0,52.47,1.45,8.89,2.1
Muravlenko,0.0,RU,1553750754.0,95.0,63.79,74.5,-0.34,4.51
Abu Dhabi,40.0,AE,1553749200.0,88.0,24.47,54.37,20.0,5.1
Florianopolis,75.0,BR,1553750704.0,88.0,-27.6,-48.55,21.67,2.6
Sistranda,75.0,NO,1553750663.0,93.0,63.73,8.83,7.78,12.9
Georgetown,0.0,GY,1553745600.0,94.0,6.8,-58.16,24.0,2.1
Road Town,75.0,VG,1553750553.0,78.0,18.42,-64.62,26.0,2.6
Vigrestad,90.0,NO,1553750659.0,100.0,58.57,5.7,7.22,3.1
urumqi,,,,,,,,
Champerico,5.0,MX,1553748180.0,64.0,16.38,-93.6,23.0,6.7
Sitka,0.0,US,1553750139.0,75.0,37.17,-99.65,17.22,4.92
Quang Ngai,8.0,VN,1553750491.0,51.0,15.12,108.8,32.52,1.21
Saldanha,0.0,PT,1553750715.0,54.0,41.42,-6.55,4.17,4.31
San Policarpo,44.0,PH,1553750758.0,87.0,12.18,125.51,27.57,4.76
Padang,20.0,ID,1553745600.0,66.0,-0.92,100.36,31.0,2.1
Mount Gambier,75.0,AU,1553745600.0,38.0,-37.83,140.78,25.0,6.2
Lac du Bonnet,0.0,CA,1553750697.0,90.0,50.25,-96.06,2.78,2.68
Ust-Kuyga,8.0,RU,1553750744.0,76.0,70.0,135.55,-11.59,2.76
Port Elizabeth,1.0,US,1553750663.0,92.0,39.31,-74.98,3.89,1.46
Acari,56.0,BR,1553750760.0,95.0,-6.44,-36.64,20.92,1.61
kuche,,,,,,,,
Kupino,0.0,RU,1553750761.0,100.0,54.36,77.31,0.67,1.86
toftir,,,,,,,,
Haines Junction,0.0,CA,1553750761.0,80.0,60.75,-137.51,-6.54,0.96
Provideniya,90.0,RU,1553749200.0,100.0,64.42,-173.23,-1.0,7.0
Bondo,12.0,CD,1553750762.0,92.0,3.81,23.69,23.22,1.31
Gat,0.0,SN,1553749200.0,82.0,14.69,-16.54,19.0,6.2
Hobart,0.0,AU,1553750239.0,28.0,-42.88,147.33,24.44,5.7
Port Blair,20.0,IN,1553750585.0,99.0,11.67,92.75,29.77,3.11
Port Alfred,20.0,ZA,1553750763.0,76.0,-33.59,26.89,20.92,5.26
Zafra,0.0,ES,1553750467.0,60.0,38.43,-6.42,7.78,3.13
Maku,40.0,IR,1553748660.0,60.0,39.29,44.45,6.0,1.41
barawe,,,,,,,,
Lebanon,1.0,US,1553750717.0,92.0,43.64,-72.25,0.0,1.81
nizhneyansk,,,,,,,,
Suluq,88.0,LY,1553750764.0,41.0,31.67,20.25,18.97,3.16
Barrow,0.0,AR,1553750696.0,89.0,-38.31,-60.23,13.17,6.66
Te Anau,0.0,NZ,1553750765.0,59.0,-45.41,167.72,15.27,0.61
Requena,0.0,ES,1553750650.0,79.0,39.49,-1.1,6.67,3.1
Aborlan,75.0,PH,1553749200.0,70.0,9.44,118.55,31.0,5.1
Denpasar,40.0,ID,1553747400.0,79.0,-8.65,115.22,29.0,1.0
Nome,1.0,US,1553750708.0,87.0,30.04,-94.42,14.44,2.41
Severo-Kurilsk,92.0,RU,1553750766.0,96.0,50.68,156.12,-0.39,12.71
Kangaatsiaq,20.0,GL,1553750766.0,100.0,68.31,-53.46,-11.94,5.56
Ayagoz,44.0,KZ,1553750767.0,80.0,47.96,80.43,5.62,5.96
Sulangan,0.0,PH,1553750767.0,99.0,11.14,123.72,28.07,3.91
Alofi,12.0,NU,1553749200.0,83.0,-19.06,-169.92,28.0,1.5
Khatanga,12.0,RU,1553750652.0,88.0,71.98,102.47,-2.99,7.51
Codrington,90.0,AU,1553750576.0,65.0,-28.95,153.24,26.0,4.6
Almeirim,0.0,PT,1553750742.0,81.0,39.21,-8.63,11.67,2.1
Luderitz,0.0,NA,1553750768.0,94.0,-26.65,15.16,14.72,4.06
korla,,,,,,,,
Saint George,90.0,GR,1553750604.0,76.0,39.45,22.34,13.0,3.6
Zaranj,0.0,AF,1553749200.0,49.0,30.95,61.86,22.0,3.1
Arroyo,1.0,US,1553750728.0,34.0,41.39,-78.88,3.89,3.6
Upernavik,64.0,GL,1553750687.0,100.0,72.79,-56.15,-15.34,3.11
Okhotsk,80.0,RU,1553750737.0,72.0,59.36,143.24,-2.29,1.76
Tianmen,64.0,CN,1553750770.0,85.0,30.65,113.16,20.37,1.96
Port Lincoln,32.0,AU,1553750703.0,74.0,-34.72,135.86,22.07,6.16
olafsvik,,,,,,,,
College,1.0,US,1553750525.0,80.0,64.86,-147.8,3.0,2.21
Reconquista,24.0,AR,1553750771.0,75.0,-29.14,-59.64,19.22,5.56
tubruq,,,,,,,,
Luanda,75.0,AO,1553745600.0,88.0,-8.83,13.24,27.0,2.6
kadykchan,,,,,,,,
Kedrovyy,0.0,RU,1553749200.0,44.0,56.17,91.82,5.0,5.0
Soe,0.0,EE,1553750296.0,86.0,57.91,26.05,0.56,5.1
Clyde River,1.0,CA,1553749200.0,83.0,70.47,-68.59,-23.0,2.1
Acapulco,5.0,MX,1553748000.0,78.0,16.86,-99.88,26.0,1.5
Poum,80.0,MK,1553750776.0,59.0,41.28,20.71,1.07,0.91
Tuktoyaktuk,20.0,CA,1553745600.0,92.0,69.44,-133.03,-8.0,5.7
Nova Granada,0.0,BR,1553749200.0,78.0,-20.53,-49.32,23.0,3.6
Ribeira Grande,12.0,PT,1553750703.0,100.0,38.52,-28.7,14.27,6.01
Vila Franca do Campo,20.0,PT,1553750725.0,71.0,37.72,-25.43,13.0,4.6
Makakilo City,1.0,US,1553750590.0,69.0,21.35,-158.09,25.0,5.7
Beni Mazar,0.0,EG,1553750547.0,52.0,28.5,30.8,14.82,2.01
Baykalsk,12.0,RU,1553750729.0,36.0,51.52,104.15,0.56,2.24
Mahebourg,75.0,MU,1553750646.0,74.0,-20.41,57.7,29.0,5.7
Salalah,0.0,OM,1553748600.0,58.0,17.01,54.1,28.0,1.5
Kampene,64.0,CD,1553750778.0,96.0,-3.59,26.67,21.07,1.31
Bambous Virieux,75.0,MU,1553750646.0,74.0,-20.34,57.76,29.0,5.7
Tura,0.0,IN,1553750769.0,76.0,25.52,90.21,25.42,1.71
babanusah,,,,,,,,
Katsuura,75.0,JP,1553749470.0,51.0,33.93,134.5,17.0,5.1
Zwedru,48.0,LR,1553750779.0,93.0,6.07,-8.13,21.92,1.51
Adamas,92.0,GR,1553748600.0,71.0,36.73,24.43,14.0,4.6
Fortuna,0.0,ES,1553750754.0,52.0,38.18,-1.13,9.0,1.11
Acheng,0.0,CN,1553745600.0,19.0,45.55,126.95,3.0,4.0
Kaitangata,0.0,NZ,1553750716.0,64.0,-46.28,169.85,15.56,2.68
Toktogul,80.0,KG,1553750652.0,63.0,41.87,72.95,8.47,0.86
Voerde,75.0,DE,1553750779.0,87.0,51.6,6.68,8.89,0.5
Longyearbyen,64.0,NO,1553750781.0,80.0,78.22,15.63,-12.84,1.76
Norman Wells,90.0,CA,1553745600.0,93.0,65.28,-126.83,3.0,3.1
Tateyama,75.0,JP,1553750690.0,61.0,36.66,137.31,10.56,0.5
Wilmington,1.0,US,1553750719.0,69.0,39.75,-75.55,2.0,3.1
Bredasdorp,36.0,ZA,1553750129.0,87.0,-34.53,20.04,16.67,2.6
Rome,0.0,IT,1553750590.0,49.0,41.89,12.48,9.44,3.1
Murray Bridge,24.0,AU,1553750746.0,28.0,-35.12,139.28,28.89,2.24
Cidreira,64.0,BR,1553750783.0,75.0,-30.17,-50.22,20.67,5.26
Half Moon Bay,90.0,US,1553750780.0,82.0,37.46,-122.43,13.33,4.1
palabuhanratu,,,,,,,,
Elizabeth City,1.0,US,1553750612.0,75.0,36.3,-76.22,8.0,3.6
betioky,,,,,,,,
Quatre Cocos,75.0,MU,1553750646.0,74.0,-20.21,57.76,29.0,5.7
Cap Malheureux,75.0,MU,1553750646.0,74.0,-19.98,57.61,29.0,5.7
phan rang,,,,,,,,
Passo de Camaragibe,20.0,BR,1553749200.0,94.0,-9.24,-35.49,24.0,1.0
Victoria,75.0,BN,1553747400.0,74.0,5.28,115.24,31.0,3.6
Mar del Plata,12.0,AR,1553750575.0,71.0,-46.43,-67.52,10.47,4.46
Dekar,12.0,BW,1553750786.0,64.0,-21.53,21.93,21.32,5.31
cockburn harbour,,,,,,,,
barentsburg,,,,,,,,
Lincoln,75.0,GB,1553750701.0,80.0,53.23,-0.54,7.22,1.5
Avera,1.0,US,1553750739.0,60.0,33.19,-82.53,6.0,2.1
Kambove,8.0,CD,1553750787.0,78.0,-10.88,26.6,20.92,3.86
Kabanjahe,20.0,ID,1553749200.0,59.0,3.1,98.49,32.0,2.6
Manbij,20.0,SY,1553748600.0,100.0,36.53,37.96,6.0,0.5
Taoudenni,0.0,ML,1553750788.0,68.0,22.68,-3.98,14.97,1.26
Komsomolskiy,76.0,RU,1553750788.0,94.0,67.55,63.78,-4.44,6.61
Baijiantan,24.0,CN,1553750657.0,81.0,45.63,85.18,12.92,3.31
Metro,68.0,ID,1553750789.0,90.0,-5.11,105.31,29.07,2.41
Laguna,12.0,MX,1553750789.0,66.0,27.52,-110.01,15.47,0.86
Aquiraz,75.0,BR,1553750289.0,94.0,-3.9,-38.39,25.0,1.5
Mulchen,8.0,CL,1553750790.0,83.0,-37.72,-72.23,8.47,1.06
Chuy,8.0,UY,1553750790.0,89.0,-33.69,-53.46,15.92,4.26
Marzuq,0.0,YE,1553750790.0,43.0,14.4,46.47,23.72,1.61
Tiksi,8.0,RU,1553750790.0,68.0,71.64,128.87,-9.09,6.31
Kodiak,1.0,US,1553750650.0,63.0,39.95,-94.76,16.67,5.7
Creel,12.0,MX,1553750791.0,32.0,27.75,-107.63,9.97,2.26
Sao Joao da Barra,92.0,BR,1553750791.0,99.0,-21.64,-41.05,26.82,5.41
Havoysund,75.0,NO,1553748600.0,69.0,71.0,24.66,1.0,12.3
Richards Bay,0.0,ZA,1553750792.0,80.0,-28.77,32.06,23.32,6.21
Lata,12.0,IN,1553750792.0,68.0,30.78,78.62,16.57,0.71
Baykit,32.0,RU,1553750792.0,74.0,61.68,96.39,-0.19,1.71
Tutoia,56.0,BR,1553750793.0,97.0,-2.76,-42.27,24.77,1.86
Ugoofaaru,0.0,MV,1553750690.0,100.0,5.67,73.0,28.97,3.21
Aklavik,75.0,CA,1553749200.0,86.0,68.22,-135.01,-3.0,2.1
Beloomut,76.0,RU,1553750610.0,74.0,54.94,39.34,-1.67,3.13
Uusikaupunki,0.0,FI,1553748600.0,100.0,60.8,21.41,-3.0,2.6
Namatanai,0.0,PG,1553750692.0,92.0,-3.66,152.44,29.37,6.81
Vardo,1.0,US,1553750595.0,80.0,39.62,-77.74,4.0,2.46
Vanimo,64.0,PG,1553750698.0,100.0,-2.67,141.3,28.27,3.56
Gasa,0.0,BT,1553750794.0,81.0,27.91,89.73,-6.69,0.41
Sa Kaeo,36.0,TH,1553750795.0,63.0,13.8,102.09,33.02,3.56
North Bend,40.0,US,1553750718.0,76.0,43.41,-124.22,9.0,2.6
Port Hardy,5.0,CA,1553745600.0,86.0,50.7,-127.42,5.0,1.5
Puerto Escondido,0.0,MX,1553750795.0,99.0,15.86,-97.07,28.62,5.61
Yarkovo,0.0,RU,1553749200.0,74.0,54.81,82.6,1.0,2.0
Aasiaat,64.0,GL,1553750796.0,99.0,68.71,-52.87,-11.29,1.41
Marsh Harbour,0.0,BS,1553750506.0,100.0,26.54,-77.06,20.07,4.26
Swan River,36.0,CA,1553750796.0,78.0,52.11,-101.27,-1.34,3.51
Takaka,0.0,NZ,1553750650.0,61.0,-40.86,172.81,20.0,1.34
karkaralinsk,,,,,,,,
Linxia,0.0,CN,1553750797.0,22.0,35.6,103.21,10.92,3.11
Bethel,75.0,US,1553748960.0,80.0,60.79,-161.76,2.0,1.5
Guararapes,68.0,BR,1553750798.0,64.0,-21.25,-50.65,25.67,5.86
Eyl,0.0,SO,1553750798.0,90.0,7.98,49.82,27.12,2.71
Beringovskiy,0.0,RU,1553750674.0,86.0,63.05,179.32,-5.44,4.51
Auki,8.0,NG,1553750799.0,28.0,12.18,6.51,20.82,5.01
Tuatapere,0.0,NZ,1553750406.0,68.0,-46.13,167.69,16.11,2.66
Nouakchott,0.0,MR,1553747400.0,88.0,18.08,-15.98,17.0,4.1
Mocuba,92.0,MZ,1553750800.0,99.0,-16.84,36.99,23.42,3.41
Ponta do Sol,100.0,BR,1553750750.0,58.0,-20.63,-46.0,23.57,3.86
khonuu,,,,,,,,
Kamenka,0.0,RU,1553750800.0,91.0,53.19,44.05,-3.64,3.76
Brokopondo,0.0,SR,1553749200.0,94.0,5.06,-54.98,24.0,1.0
Koster,0.0,ZA,1553750801.0,76.0,-25.86,26.9,18.42,2.86
Henties Bay,64.0,NA,1553749332.0,93.0,-22.12,14.28,16.11,1.41
Santa Marinella,0.0,IT,1553750732.0,96.0,42.04,11.87,9.44,5.1
Inhambane,20.0,MZ,1553745600.0,94.0,-23.87,35.38,20.0,2.71
Kaseda,75.0,JP,1553749944.0,67.0,31.42,130.32,16.0,1.0
Macae,0.0,BR,1553749200.0,74.0,-22.37,-41.79,26.0,4.1
Lander,1.0,US,1553750270.0,32.0,42.83,-108.73,7.0,3.6
mys shmidta,,,,,,,,
Chojnow,75.0,PL,1553750795.0,93.0,51.27,15.94,7.22,4.1
Baherden,32.0,TM,1553750809.0,100.0,38.44,57.43,11.07,1.61
Vallenar,0.0,CL,1553750809.0,73.0,-28.58,-70.76,10.32,0.51
Rajapur,0.0,IN,1553750810.0,30.0,25.39,81.15,33.97,2.01
longlac,,,,,,,,
Jacareacanga,12.0,BR,1553750810.0,90.0,-6.22,-57.76,24.27,0.61
Esperance,20.0,TT,1553750707.0,88.0,10.24,-61.45,24.0,1.5
bengkulu,,,,,,,,
safaga,,,,,,,,
Mackay,90.0,CA,1553749200.0,86.0,53.65,-115.58,-1.0,1.0
lago da pedra,,,,,,,,
San Juan,1.0,PR,1553750736.0,78.0,18.47,-66.12,25.0,1.5
Ivanivka,0.0,UA,1553749200.0,77.0,46.98,30.46,0.0,2.0
Yumen,76.0,CN,1553750814.0,46.0,40.29,97.04,8.62,1.86
Baghdad,0.0,IQ,1553749200.0,71.0,33.3,44.38,14.0,3.6
Freeport,36.0,BS,1553750785.0,100.0,26.54,-78.7,19.82,2.86
karaul,,,,,,,,
Hobyo,0.0,SO,1553750814.0,74.0,5.35,48.53,29.02,4.66
Bismil,75.0,TR,1553748600.0,100.0,37.85,40.66,9.0,1.0
San Luis,68.0,AR,1553750815.0,61.0,-33.3,-66.34,18.07,5.46
Ijuin,75.0,JP,1553749944.0,67.0,31.62,130.4,16.0,1.0
Dickinson,90.0,US,1553750721.0,74.0,46.88,-102.79,2.78,3.1
Meulaboh,32.0,ID,1553750816.0,100.0,4.14,96.13,28.47,2.96
Touros,40.0,BR,1553745600.0,100.0,-5.2,-35.46,24.0,1.5
Merauke,36.0,ID,1553750817.0,86.0,-8.49,140.4,30.07,5.06
Savannah Bight,92.0,HN,1553750817.0,95.0,16.45,-85.85,26.72,5.21
Suez,0.0,EG,1553750817.0,62.0,29.97,32.54,13.67,1.31
Namibe,12.0,AO,1553750817.0,98.0,-15.19,12.15,25.57,2.81
Gejiu,32.0,CN,1553750818.0,57.0,23.36,103.16,22.57,1.66
Guerrero Negro,76.0,MX,1553750818.0,99.0,27.97,-114.04,13.02,3.46
Portland,20.0,US,1553750714.0,93.0,45.52,-122.67,7.22,2.1
Grand Gaube,75.0,MU,1553750646.0,74.0,-20.01,57.66,29.0,5.7
Vila,0.0,IT,1553750783.0,74.0,45.18,8.4,8.33,2.6
Oranjemund,88.0,ZA,1553750819.0,100.0,-28.55,16.43,13.82,4.31
Goderich,44.0,CA,1553750639.0,63.0,43.74,-81.71,6.11,4.92
Galdar,20.0,ES,1553750733.0,77.0,28.15,-15.65,15.56,2.6
Butaritari,88.0,KI,1553750820.0,99.0,3.07,172.79,29.17,8.61
Villa Bruzual,0.0,VE,1553750820.0,76.0,9.33,-69.12,22.92,2.71
Estevan,75.0,CA,1553750571.0,77.0,49.14,-102.99,3.0,2.6
Qiongshan,20.0,CN,1553745600.0,55.0,20.01,110.35,32.0,3.0
Ananindeua,0.0,BR,1553749200.0,94.0,-1.37,-48.4,25.0,2.1
hvolsvollur,,,,,,,,
Teodoro Sampaio,0.0,BR,1553750821.0,67.0,-22.53,-52.17,23.62,7.46
Dustlik,68.0,UZ,1553750822.0,100.0,40.53,68.03,15.77,2.96
Marystown,0.0,CA,1553750160.0,100.0,47.17,-55.16,-7.22,1.81
kerki,,,,,,,,
Fereydunshahr,20.0,IR,1553750822.0,75.0,32.94,50.12,3.67,1.16
Rio Gallegos,0.0,AR,1553749200.0,86.0,-51.62,-69.22,5.0,2.6
Yar-Sale,12.0,RU,1553750823.0,94.0,66.83,70.83,-4.09,4.76
Rangapara,0.0,IN,1553750823.0,55.0,26.82,92.69,21.77,1.16
Dingle,20.0,PH,1553750823.0,78.0,11.0,122.67,28.77,4.86
ondorhaan,,,,,,,,
Husavik,32.0,CA,1553750697.0,90.0,50.56,-96.99,2.78,2.68
Jinchang,24.0,CN,1553750827.0,81.0,38.52,102.19,5.02,3.16
Berga,0.0,ES,1553750825.0,80.0,42.1,1.85,5.56,1.0
Saskylakh,0.0,RU,1553750668.0,87.0,71.97,114.09,-4.94,2.86
Lorengau,48.0,PG,1553750828.0,100.0,-2.02,147.27,27.97,3.76
Koumac,56.0,NC,1553750828.0,71.0,-20.56,164.28,27.97,3.11
Chifeng,80.0,CN,1553750829.0,60.0,42.27,118.96,2.97,1.36
saleaula,,,,,,,,
Waddan,8.0,LY,1553750829.0,57.0,29.16,16.14,17.27,3.66
Moussoro,0.0,TD,1553750829.0,16.0,13.64,16.49,24.52,6.26
Jalu,36.0,LY,1553750830.0,35.0,29.03,21.55,19.02,6.56
Lavrentiya,80.0,RU,1553750830.0,92.0,65.58,-170.99,0.02,9.96
Manokwari,20.0,ID,1553750830.0,98.0,-0.87,134.08,27.97,7.51
Guadalajara,0.0,ES,1553750526.0,47.0,40.63,-3.16,7.22,0.5
Sovetskiy,88.0,RU,1553750831.0,98.0,56.76,48.47,0.07,0.91
Khilok,68.0,RU,1553750831.0,34.0,51.36,110.46,-2.44,1.81
Banda Aceh,24.0,ID,1553750831.0,98.0,5.56,95.32,27.77,0.61
Ostrovnoy,8.0,RU,1553750832.0,87.0,68.05,39.51,-3.69,6.86
Birjand,0.0,IR,1553749200.0,59.0,32.86,59.22,17.0,2.1
Sault Sainte Marie,90.0,CA,1553749200.0,64.0,46.49,-84.36,7.0,7.86
Egvekinot,44.0,RU,1553750833.0,84.0,66.32,-179.17,-6.99,1.61
Dwarka,48.0,IN,1553750107.0,34.0,28.58,77.04,29.44,2.1
Novopavlovka,64.0,RU,1553750833.0,35.0,51.21,109.22,-1.69,2.21
Tamandare,76.0,BR,1553750833.0,91.0,-8.28,-70.75,23.57,1.76
Cukai,75.0,MY,1553749200.0,83.0,4.25,103.42,30.56,1.0
Coquimbo,90.0,CL,1553749200.0,87.0,-29.95,-71.34,14.0,2.6
Sur,0.0,OM,1553750834.0,83.0,22.57,59.53,25.77,2.36
Dulce Nombre de Culmi,48.0,HN,1553750835.0,87.0,15.08,-85.56,16.17,1.16
Tilichiki,20.0,RU,1553750835.0,80.0,60.47,166.1,-7.94,1.21
Comodoro Rivadavia,0.0,AR,1553749200.0,40.0,-45.87,-67.48,22.0,1.0
bardiyah,,,,,,,,
Sao Felix do Xingu,48.0,BR,1553750836.0,100.0,-6.64,-51.99,22.42,0.96
Port Hedland,0.0,AU,1553750816.0,78.0,-20.31,118.58,33.37,3.36
Sawtell,80.0,AU,1553750602.0,57.0,-30.38,153.1,27.0,4.1
East London,0.0,ZA,1553749200.0,72.0,-33.02,27.91,19.0,3.6
Edd,0.0,ER,1553750836.0,62.0,13.93,41.69,25.42,1.51
Mon,0.0,IN,1553750837.0,56.0,26.73,95.03,25.82,1.66
Sacramento,1.0,US,1553750807.0,76.0,38.58,-121.49,12.22,1.5
Barra,48.0,BR,1553750838.0,95.0,-11.09,-43.14,22.12,2.66
kapustin yar-1,,,,,,,,
Mirabad,76.0,IR,1553750838.0,51.0,28.27,61.33,19.97,6.46
katsiveli,,,,,,,,
Tevriz,8.0,RU,1553750839.0,77.0,57.51,72.4,3.37,1.56
Otane,92.0,NZ,1553750537.0,74.0,-39.89,176.62,15.56,0.89
Harbour Breton,0.0,CA,1553750160.0,100.0,47.48,-55.8,-7.22,1.06
Moron,80.0,VE,1553750839.0,95.0,10.49,-68.2,19.77,1.36
Bilma,44.0,NE,1553750792.0,31.0,18.69,12.92,17.42,1.76
El Cobre,40.0,CU,1553748600.0,78.0,20.05,-75.95,23.0,2.6
Aksu,75.0,KZ,1553749200.0,70.0,52.04,76.93,0.0,5.0
Xining,0.0,CN,1553750841.0,19.0,36.62,101.77,10.42,4.61
Mehamn,90.0,NO,1553748600.0,87.0,71.03,27.85,1.0,12.3
Barpeta,20.0,IN,1553749200.0,48.0,26.33,91.01,29.0,2.6
Yayva,92.0,RU,1553750841.0,96.0,59.33,57.26,1.77,3.71
Nazareno,44.0,MX,1553750595.0,47.0,25.4,-103.42,22.78,1.51
bur gabo,,,,,,,,
dujuma,,,,,,,,
Dahra,0.0,DZ,1553745600.0,75.0,36.25,0.85,8.0,2.46
Jiwani,36.0,PK,1553750843.0,77.0,25.05,61.74,26.07,1.51
Talca,0.0,CL,1553749200.0,87.0,-35.43,-71.66,12.0,1.0
Jablanica,0.0,BA,1553749200.0,48.0,43.66,17.76,5.0,3.1
Ucluelet,12.0,CA,1553749933.0,82.0,48.94,-125.55,10.0,1.16
Norsup,76.0,VU,1553750844.0,90.0,-16.07,167.38,27.37,4.81
Bogotol,80.0,RU,1553750844.0,88.0,56.21,89.53,1.62,4.61
Tomatlan,0.0,MX,1553750844.0,87.0,19.93,-105.25,17.77,0.86
lushunkou,,,,,,,,
Marienburg,80.0,DE,1553750716.0,100.0,52.12,9.98,8.33,2.6
Scarborough,0.0,GB,1553750642.0,87.0,54.28,-0.41,7.22,2.6
Barra do Garcas,36.0,BR,1553750845.0,94.0,-15.89,-52.26,21.22,1.61
Byron Bay,90.0,AU,1553750576.0,57.0,-28.65,153.62,26.0,6.2
haibowan,,,,,,,,
Flinders,40.0,AU,1553750825.0,53.0,-34.58,150.85,27.78,6.7
Sivaki,68.0,RU,1553750846.0,33.0,52.63,126.75,-3.59,2.51
Cambridge,90.0,GB,1553750643.0,100.0,52.2,0.12,7.22,2.1
Yukon,1.0,US,1553750781.0,59.0,35.51,-97.76,17.22,6.2
Tabou,0.0,CI,1553750850.0,97.0,4.42,-7.36,28.67,2.11
Aguimes,20.0,ES,1553750733.0,77.0,27.91,-15.45,15.56,2.6
Svetlogorsk,76.0,RU,1553749200.0,100.0,53.14,59.15,-4.0,4.0
Nanortalik,0.0,GL,1553750733.0,100.0,60.14,-45.24,-4.09,15.81
El Alto,75.0,BO,1553749740.0,100.0,-16.5,-68.19,6.0,3.1
Camacha,40.0,PT,1553749200.0,87.0,33.08,-16.33,16.0,1.0
Faanui,80.0,PF,1553750852.0,98.0,-16.48,-151.75,29.77,1.76
Leningradskiy,76.0,RU,1553750852.0,86.0,69.38,178.42,-7.94,9.86
Chokurdakh,24.0,RU,1553750661.0,84.0,70.62,147.9,-14.89,5.76
Cedar Lake,90.0,US,1553750740.0,81.0,41.36,-87.44,8.33,4.6
Birao,12.0,CF,1553750853.0,24.0,10.3,22.78,23.82,6.01
Kruisfontein,48.0,ZA,1553750853.0,85.0,-34.0,24.73,17.17,5.31
Yashkul,80.0,RU,1553750853.0,74.0,46.17,45.34,7.82,7.51
Fatsa,75.0,TR,1553748600.0,75.0,41.03,37.5,8.0,1.0
Grindavik,75.0,IS,1553750083.0,100.0,63.84,-22.43,0.0,4.6
Sambava,76.0,MG,1553750854.0,100.0,-14.27,50.17,26.87,3.66
Atasu,100.0,KZ,1553750855.0,94.0,48.68,71.64,5.27,8.86
Talnakh,92.0,RU,1553750855.0,99.0,69.49,88.39,-2.34,5.81
Westport,12.0,IE,1553750525.0,79.0,53.8,-9.52,9.44,0.45
Klaksvik,76.0,FO,1553748600.0,93.0,62.23,-6.59,8.0,6.7
zhitikara,,,,,,,,
Hamilton,75.0,BM,1553750269.0,82.0,32.3,-64.78,17.0,7.2
Awbari,64.0,LY,1553750856.0,62.0,26.59,12.77,15.47,1.26
chokwe,,,,,,,,
Coihaique,90.0,CL,1553749200.0,65.0,-45.58,-72.07,7.0,3.1
Necochea,0.0,AR,1553750479.0,88.0,-38.55,-58.74,12.78,1.34
Boysun,36.0,UZ,1553750857.0,100.0,38.2,67.2,6.92,0.41
Humaita,90.0,AR,1553749200.0,93.0,-24.93,-65.37,13.0,1.5
tabiauea,,,,,,,,
Mlonggo,20.0,ID,1553749200.0,66.0,-6.53,110.7,30.0,3.6
Barcelos,0.0,PT,1553750687.0,19.0,41.53,-8.62,15.0,6.7
Orocue,48.0,CO,1553750858.0,69.0,4.79,-71.34,27.27,3.11
Bud,75.0,NO,1553750156.0,61.0,62.91,6.91,10.0,10.3
Nemuro,75.0,JP,1553749200.0,100.0,43.32,145.57,0.0,5.1
Bandarbeyla,0.0,SO,1553750862.0,100.0,9.49,50.81,26.27,2.61
Dipolog,80.0,PH,1553750863.0,96.0,8.58,123.34,25.72,1.86
Conakry,68.0,GN,1553750863.0,100.0,9.52,-13.7,24.32,1.96
General Pico,0.0,AR,1553750863.0,66.0,-35.66,-63.75,16.17,5.66
Amapa,20.0,HN,1553749200.0,83.0,15.09,-87.97,23.0,1.0
Clearlake,1.0,US,1553750829.0,75.0,38.96,-122.63,11.11,1.71
Lasa,75.0,CY,1553747400.0,87.0,34.92,32.53,12.0,1.0
Cabra,0.0,ES,1553750604.0,81.0,37.47,-4.43,7.22,0.5
amderma,,,,,,,,
Baruun-Urt,24.0,MN,1553750865.0,25.0,46.68,113.28,2.52,4.11
Vredendal,24.0,ZA,1553750865.0,86.0,-31.68,18.49,12.27,1.51
Conceicao do Araguaia,8.0,BR,1553750865.0,95.0,-8.26,-49.26,22.32,1.21
Hithadhoo,48.0,MV,1553750677.0,100.0,-0.6,73.08,27.92,1.56
Sabha,76.0,LY,1553750866.0,60.0,27.03,14.43,17.12,1.26
Riyadh,0.0,SA,1553749200.0,26.0,24.63,46.72,21.0,4.6
Mercedes,0.0,UY,1553750866.0,87.0,-33.25,-58.03,15.22,5.21
Zhigansk,0.0,RU,1553750735.0,70.0,66.77,123.37,-7.44,1.51
Zalantun,48.0,CN,1553750703.0,25.0,48.0,122.72,2.97,1.71
Toora-Khem,64.0,RU,1553750867.0,54.0,52.47,96.11,0.22,2.76
Portree,92.0,GB,1553750175.0,95.0,57.41,-6.19,8.33,6.26
Coahuayana,0.0,MX,1553750746.0,50.0,18.62,-100.35,14.17,1.21
Fonte Boa,32.0,BR,1553750868.0,93.0,-2.51,-66.09,25.62,1.16
Keflavik,75.0,IS,1553750083.0,100.0,64.0,-22.56,0.0,4.6
Bani Walid,56.0,LY,1553750868.0,78.0,31.76,14.0,11.27,5.46
Valer,0.0,ES,1553750869.0,62.0,41.76,-6.18,0.47,3.56
tsihombe,,,,,,,,
Plastun,0.0,RU,1553750869.0,37.0,44.76,136.29,-2.89,3.46
Asosa,0.0,ET,1553750869.0,20.0,10.07,34.53,25.97,1.76
Carutapera,76.0,BR,1553750870.0,96.0,-1.2,-46.02,25.57,2.21
Punta Alta,0.0,AR,1553749200.0,77.0,-27.46,-55.82,19.0,3.1
Murdochville,48.0,CA,1553750870.0,64.0,48.96,-65.49,-1.49,4.76
Liwale,92.0,TZ,1553750870.0,99.0,-9.8,37.92,21.47,0.96
Myitkyina,92.0,MM,1553750871.0,81.0,25.38,97.4,20.57,1.16
Roxas,20.0,PH,1553750871.0,99.0,10.32,119.34,27.42,3.66
Constitucion,12.0,MX,1553750871.0,37.0,23.99,-104.67,18.42,4.86
karauzyak,,,,,,,,
Sao Filipe,0.0,CV,1553750872.0,100.0,14.9,-24.5,20.47,5.01
Tromso,75.0,NO,1553750368.0,86.0,69.65,18.96,4.0,15.9
Olinda,75.0,EC,1553750728.0,69.0,-2.03,-79.75,26.11,3.1
grande-riviere,,,,,,,,
Homer,1.0,US,1553750733.0,87.0,59.64,-151.54,6.0,2.6
Hirara,20.0,JP,1553749200.0,74.0,24.8,125.28,27.0,9.8
Shahr-e Babak,0.0,IR,1553750655.0,100.0,30.12,55.12,11.22,1.91
fevralsk,,,,,,,,
Koslan,80.0,RU,1553750874.0,79.0,63.46,48.9,-1.04,0.51
Togur,12.0,RU,1553750874.0,91.0,58.36,82.83,2.97,2.31
Praia da Vitoria,75.0,PT,1553750105.0,71.0,38.73,-27.07,14.0,6.26
Hervey Bay,90.0,AU,1553750109.0,88.0,-25.3,152.85,25.0,2.6
Salinas,40.0,US,1553750853.0,76.0,36.67,-121.66,13.0,2.31
Batsfjord,75.0,NO,1553748600.0,69.0,70.63,29.72,1.0,7.7
Bereda,0.0,ES,1553750639.0,93.0,43.27,-7.54,10.56,1.0
Vidim,90.0,CZ,1553750855.0,75.0,50.47,14.53,7.22,3.6
Chicama,40.0,PE,1553749200.0,83.0,-7.84,-79.15,21.0,3.1
Alice Springs,0.0,AU,1553749200.0,18.0,-23.7,133.88,29.0,5.1
sofiysk,,,,,,,,
Esik,75.0,KZ,1553749200.0,44.0,43.36,77.47,14.0,1.0
Gigmoto,64.0,PH,1553750877.0,96.0,13.78,124.39,26.97,3.96
Esna,0.0,RO,1553750878.0,59.0,45.2,27.57,2.97,3.56
Hofn,92.0,IS,1553750878.0,100.0,64.25,-15.21,2.42,4.26
Grove City,1.0,US,1553750616.0,69.0,39.88,-83.09,7.0,4.1
Killybegs,44.0,IE,1553750825.0,85.0,54.63,-8.45,6.67,2.24
Jaumave,5.0,MX,1553750715.0,73.0,23.41,-99.38,21.0,7.7
fort saint john,,,,,,,,
Atambua,100.0,ID,1553750879.0,100.0,-9.11,124.89,26.17,3.41
grand river south east,,,,,,,,
Nalagarh,20.0,IN,1553749200.0,52.0,31.04,76.72,20.0,2.1
Chisec,92.0,GT,1553750880.0,100.0,15.81,-90.29,17.67,0.66
Dryden,90.0,CA,1553749860.0,86.0,49.79,-92.84,1.0,5.1
Ruteng,88.0,ID,1553750880.0,90.0,-8.61,120.46,25.67,1.41
Nadym,0.0,RU,1553750881.0,97.0,65.53,72.51,-1.84,4.11
Cabras,32.0,CO,1553750881.0,88.0,5.5,-75.6,15.92,0.76
Sinnamary,92.0,GF,1553750881.0,93.0,5.38,-52.96,26.77,5.66
Harper,1.0,US,1553750866.0,72.0,30.3,-99.24,17.22,3.6
Oktyabrskoye,20.0,RU,1553750732.0,74.0,56.73,85.44,5.0,2.0
Itoman,75.0,JP,1553749200.0,78.0,26.12,127.67,26.0,7.2
marcona,,,,,,,,
Daru,88.0,SL,1553750883.0,94.0,7.99,-10.85,22.37,1.21
Coronel,0.0,MX,1553750883.0,77.0,17.95,-92.84,21.27,3.01
Libertador General San Martin,92.0,AR,1553750883.0,97.0,-23.81,-64.79,13.47,0.76
Cienfuegos,0.0,CU,1553749140.0,77.0,22.15,-80.44,19.0,2.6
Kibala,0.0,TD,1553749200.0,69.0,9.11,18.35,26.0,3.66
Lishu,0.0,CN,1553750884.0,48.0,43.31,124.32,5.52,4.06
Lagoa,0.0,PT,1553750837.0,71.0,37.14,-8.45,12.78,5.1
Agustin Codazzi,20.0,CO,1553745600.0,61.0,10.03,-73.24,28.0,6.2
Teguise,8.0,ES,1553749200.0,82.0,29.06,-13.56,17.0,3.1
Trairi,88.0,BR,1553750885.0,100.0,-3.28,-39.27,25.97,2.56
Carballo,0.0,ES,1553750828.0,72.0,43.21,-8.69,10.56,1.0
Abu Samrah,0.0,SY,1553750886.0,86.0,35.3,37.18,12.12,4.76
Umm Kaddadah,8.0,SD,1553750886.0,15.0,13.6,26.69,20.07,5.06
Sobolevo,12.0,RU,1553750887.0,55.0,54.43,31.9,-2.84,2.11
Paddhari,0.0,IN,1553750677.0,22.0,22.44,70.6,33.89,3.21
Peterhead,0.0,AU,1553750789.0,21.0,-34.83,138.5,28.89,5.7
Kargil,92.0,PK,1553750887.0,92.0,34.56,76.13,-6.44,0.81
Kiunga,8.0,PG,1553750888.0,59.0,-6.12,141.3,32.82,1.31
asfi,,,,,,,,
Ballina,64.0,IE,1553750525.0,85.0,54.11,-9.15,8.89,1.79
Ancud,90.0,CL,1553749200.0,100.0,-41.87,-73.83,7.0,1.5
Kurayoshi,75.0,JP,1553749200.0,66.0,35.43,133.83,11.0,8.2
Hargeysa,0.0,SO,1553749200.0,78.0,9.56,44.06,22.0,4.6
Minudasht,40.0,IR,1553749200.0,81.0,37.23,55.37,12.0,2.1
Fengrun,80.0,CN,1553750890.0,53.0,39.83,118.12,7.27,2.56
Chumikan,76.0,RU,1553750890.0,69.0,54.72,135.31,-5.09,2.01
Mayskiy,75.0,RU,1553749200.0,93.0,43.63,44.06,6.0,3.0
Algiers,1.0,US,1553750800.0,100.0,29.94,-90.04,15.56,2.66
Vao,0.0,EE,1553750891.0,90.0,59.1,26.19,-2.14,2.41
Portel,0.0,PT,1553749200.0,87.0,38.31,-7.71,8.0,2.1
Cloquet,90.0,US,1553750878.0,75.0,46.72,-92.46,6.0,6.2
Bubaque,88.0,GW,1553750892.0,100.0,11.28,-15.83,25.42,6.81
ituni,,,,,,,,
Souillac,0.0,FR,1553750829.0,80.0,45.6,-0.6,5.0,0.5
Dunedin,0.0,NZ,1553750779.0,76.0,-45.87,170.5,14.44,4.02
San Carlos de Bariloche,0.0,AR,1553749200.0,76.0,-41.13,-71.31,9.0,2.1
Porto Novo,40.0,BR,1553749200.0,88.0,-23.68,-45.44,20.0,3.1
Yilan,20.0,TW,1553750587.0,55.0,24.75,121.75,32.0,4.1
Boli,24.0,CN,1553750894.0,41.0,45.76,130.56,-1.09,3.91
Dongying,36.0,CN,1553750894.0,38.0,37.43,118.67,11.92,6.01
dolbeau,,,,,,,,
Senec,0.0,SK,1553750848.0,80.0,48.22,17.4,7.78,4.1
kemijarvi,,,,,,,,
Leshukonskoye,48.0,RU,1553750895.0,73.0,64.9,45.76,-2.54,2.21
San Patricio,0.0,PY,1553750896.0,75.0,-26.98,-56.83,19.92,2.51
Aykhal,0.0,RU,1553750896.0,81.0,65.95,111.51,-1.49,2.21
Meylan,0.0,FR,1553750858.0,92.0,45.21,5.78,5.0,0.71
Diego de Almagro,0.0,CL,1553750896.0,79.0,-26.39,-70.05,13.17,0.71
Northam,64.0,GB,1553750831.0,93.0,51.04,-4.21,5.0,2.1
Shubarkuduk,92.0,KZ,1553750897.0,100.0,49.15,56.49,2.27,5.11
Brattvag,88.0,NO,1553750704.0,87.0,62.6,6.44,10.0,11.3
Fort Nelson,5.0,CA,1553745600.0,64.0,58.81,-122.69,2.0,1.0
Kavieng,64.0,PG,1553750898.0,100.0,-2.57,150.8,29.12,4.76
Talcahuano,90.0,CL,1553749200.0,87.0,-36.72,-73.12,13.0,1.5
Lingao,0.0,CN,1553750683.0,59.0,19.91,109.69,32.47,0.76
Kristiansund,75.0,NO,1553748600.0,70.0,63.12,7.73,10.0,13.9
Papetoai,75.0,PF,1553749942.0,78.0,-17.5,-149.87,28.0,1.0
Darlowo,68.0,PL,1553750899.0,94.0,54.42,16.41,4.97,4.21
Thinadhoo,24.0,MV,1553750899.0,100.0,0.53,72.93,28.47,1.41
tabialan,,,,,,,,
Brae,88.0,GB,1553748600.0,87.0,60.4,-1.35,9.0,14.9
Iqaluit,75.0,CA,1553749921.0,77.0,63.75,-68.52,-16.0,5.1
Alexandria,1.0,US,1553750560.0,71.0,31.31,-92.44,11.0,1.51
Hobbs,20.0,US,1553750764.0,87.0,32.7,-103.14,16.11,5.1
Jablah,40.0,SY,1553749200.0,82.0,35.36,35.93,13.0,2.1
Salekhard,12.0,RU,1553750901.0,85.0,66.54,66.62,-5.09,2.16
Jiazi,40.0,CN,1553749200.0,49.0,19.61,110.49,33.0,3.0
Moba,64.0,CD,1553750902.0,100.0,-7.04,29.77,21.37,1.31
Iquique,0.0,CL,1553749200.0,68.0,-20.22,-70.14,21.0,4.6
Griffith,56.0,AU,1553749200.0,27.0,-34.29,146.06,31.0,5.7
Fukuma,75.0,JP,1553750626.0,52.0,33.77,130.47,21.11,5.1
Faya,40.0,SA,1553749200.0,77.0,18.39,42.45,18.0,3.6
Seoul,1.0,KR,1553749800.0,30.0,37.57,126.98,15.0,2.6
Dubbo,90.0,AU,1553749200.0,39.0,-32.25,148.6,28.0,2.6
Muroto,75.0,JP,1553749200.0,55.0,33.37,134.14,18.0,4.1
Price,1.0,US,1553750708.0,52.0,39.6,-110.81,7.78,4.6
Aripuana,20.0,BR,1553750904.0,95.0,-9.17,-60.63,24.12,1.31
Saint Anthony,1.0,US,1553750708.0,49.0,43.97,-111.68,8.0,1.5
Mirnyy,80.0,RU,1553750905.0,85.0,56.57,36.46,-3.09,6.31
Seymchan,64.0,RU,1553750905.0,74.0,62.93,152.39,-11.69,4.76
Nikel,0.0,NO,1553748600.0,63.0,69.41,30.21,-1.0,11.8
Revelstoke,1.0,CA,1553749200.0,78.0,50.99,-118.19,2.0,1.0
Yeppoon,75.0,AU,1553749200.0,65.0,-23.13,150.74,28.0,5.1
Moose Factory,90.0,CA,1553749200.0,93.0,51.26,-80.61,2.0,8.2
Yarada,0.0,IN,1553749200.0,59.0,17.65,83.27,32.0,2.1
Tselinnoye,56.0,UA,1553750907.0,98.0,45.9,34.18,3.77,7.51
Cotonou,40.0,BJ,1553745600.0,83.0,6.37,2.43,29.0,4.1
yirol,,,,,,,,
Dakar,24.0,SN,1553749200.0,82.0,14.69,-17.45,19.0,6.2
sorvag,,,,,,,,
Gondanglegi,68.0,ID,1553750908.0,87.0,-7.75,112.01,28.67,1.86
Birecik,20.0,TR,1553750314.0,100.0,37.03,37.98,10.56,0.5
Bathsheba,75.0,BB,1553749200.0,69.0,13.22,-59.52,26.0,8.2
Takoradi,20.0,GH,1553750909.0,100.0,4.89,-1.75,26.77,1.96
paradwip,,,,,,,,
Puerto Leguizamo,92.0,CO,1553750909.0,97.0,-0.19,-74.78,23.22,1.21
Hambantota,20.0,LK,1553749800.0,49.0,6.12,81.12,34.0,3.1
Znamenskoye,0.0,RU,1553750910.0,99.0,57.13,73.82,1.67,2.11
La Ronge,40.0,CA,1553745600.0,63.0,55.1,-105.3,-3.0,5.1
Skibbereen,0.0,IE,1553749200.0,93.0,51.55,-9.27,4.0,2.1
Presidente Epitacio,44.0,BR,1553750873.0,51.0,-21.76,-52.12,28.42,5.26
Voyvozh,76.0,RU,1553750911.0,94.0,62.89,54.96,-0.54,2.91
Ozorkow,75.0,PL,1553750905.0,93.0,51.96,19.29,6.11,4.1
yefira,,,,,,,,
Zermatt,0.0,CH,1553750721.0,74.0,46.02,7.75,4.44,0.5
lolua,,,,,,,,
Mayo,75.0,CA,1553749200.0,74.0,63.59,-135.9,3.0,1.0
artyk,,,,,,,,
uk,,,,,,,,
Enumclaw,90.0,US,1553750911.0,100.0,47.2,-121.99,11.11,1.5
Suntar,0.0,RU,1553750913.0,64.0,62.16,117.65,-2.74,1.71
Kargasok,64.0,RU,1553750914.0,69.0,59.06,80.87,4.27,1.51
Axim,8.0,GH,1553750914.0,98.0,4.87,-2.24,28.07,2.76
Hovd,75.0,NO,1553750765.0,100.0,63.83,10.7,7.78,4.1
Audru,8.0,EE,1553750644.0,85.0,58.41,24.36,1.11,3.58
Olutanga,88.0,PH,1553750915.0,100.0,7.31,122.85,26.82,1.96
Tirodi,0.0,IN,1553750915.0,28.0,21.68,79.73,35.47,2.56
Adrar,0.0,DZ,1553745600.0,55.0,27.87,-0.29,17.0,2.6
Bukachacha,36.0,RU,1553750916.0,31.0,52.99,116.91,-2.09,2.31
Pringsewu,76.0,ID,1553750916.0,83.0,-5.36,104.98,28.42,1.36
Trinidad,0.0,UY,1553750916.0,80.0,-33.52,-56.9,13.77,4.46
Rosetta,20.0,EG,1553745600.0,93.0,31.4,30.42,10.0,3.11
